{"LeonardRamsey1000": {"naam": "Leonard Ramsey", "id": 1000, "geboorteDatum": "11/18/1999", "woonplaats": {"address1": "88 Shute Street", "address2": "#1", "city": "Everett", "state": "MA", "postalCode": "02149", "coordinates": {"lat": 42.4192568, "lng": -71.0469179}}, "gehuurdeFiets": null}, "EmilyHarrell1001": {"naam": "Emily Harrell", "id": 1001, "geboorteDatum": "11/05/1991", "woonplaats": {"address1": "46 Sugarloaf Hill Road", "address2": "", "city": "Warren", "state": "VT", "postalCode": "05674", "coordinates": {"lat": 44.1166669, "lng": -72.8856442}}, "gehuurdeFiets": null}, "SamirMoss1002": {"naam": "Samir Moss", "id": 1002, "geboorteDatum": "12/15/1986", "woonplaats": {"address1": "1414 West 7th Avenue", "address2": "#APT 000002", "city": "Anchorage", "state": "AK", "postalCode": "99501", "coordinates": {"lat": 61.2156032, "lng": -149.910416}}, "gehuurdeFiets": null}, "SkyeVaughan1003": {"naam": "Skye Vaughan", "id": 1003, "geboorteDatum": "11/23/1998", "woonplaats": {"address1": "5118 Augusta Road", "address2": "", "city": "Garden City", "state": "GA", "postalCode": "31408", "coordinates": {"lat": 32.115334, "lng": -81.1650918}}, "gehuurdeFiets": null}, "IsaacBrooks1004": {"naam": "Isaac Brooks", "id": 1004, "geboorteDatum": "08/13/1998", "woonplaats": {"address1": "128 East Oak Street", "address2": "#3", "city": "Louisville", "state": "KY", "postalCode": "40203", "coordinates": {"lat": 38.2342125, "lng": -85.7539867}}, "gehuurdeFiets": null}, "JessicaBlevins1005": {"naam": "Jessica Blevins", "id": 1005, "geboorteDatum": "06/21/1987", "woonplaats": {"address1": "3827 West Chapman Avenue", "address2": "", "city": "Orange", "state": "CA", "postalCode": "92868", "coordinates": {"lat": 33.789253, "lng": -117.894846}}, "gehuurdeFiets": null}, "IsaiasLara1006": {"naam": "Isaias Lara", "id": 1006, "geboorteDatum": "11/19/1992", "woonplaats": {"address1": "55 Sunrise Avenue", "address2": "", "city": "Moretown", "state": "VT", "postalCode": "05660", "coordinates": {"lat": 44.256561, "lng": -72.79034399999999}}, "gehuurdeFiets": null}, "JazlynCochran1007": {"naam": "Jazlyn Cochran", "id": 1007, "geboorteDatum": "07/14/1992", "woonplaats": {"address1": "7 Underwood Place Northwest", "address2": "", "city": "Washington", "state": "DC", "postalCode": "20012", "coordinates": {"lat": 38.969351, "lng": -77.009722}}, "gehuurdeFiets": null}, "ValentinCollins1008": {"naam": "Valentin Collins", "id": 1008, "geboorteDatum": "11/01/1993", "woonplaats": {"address1": "1819 14th Avenue", "address2": "", "city": "Nashville", "state": "TN", "postalCode": "37208", "coordinates": {"lat": 36.1813209, "lng": -86.80847899999999}}, "gehuurdeFiets": null}, "TrinityPena1009": {"naam": "Trinity Pena", "id": 1009, "geboorteDatum": "08/09/2000", "woonplaats": {"address1": "327 Idlewylde Drive", "address2": "#3", "city": "Louisville", "state": "KY", "postalCode": "40206", "coordinates": {"lat": 38.260003, "lng": -85.70065199999999}}, "gehuurdeFiets": null}}